[{
	"id": 1000,
	"name": "DEKRA",
	"adr": {
		"street": "Solnavägen 15"
	},
	"hours": [
		"Mån - Fre: 07:00--19:00",
		"Lör: stängt",
		"Sön: stängt"
	],
	"booking": {
		"phone": "010-455 31 80",
		"url": "http://bokning.dekra-bilbesiktning.se/bb-web/webBooking"
	},
	"coords": {
		"lat": 59.352929,
		"lng": 18.017071
	}
 },
 {
	"id": 1001,
	"name": "DEKRA",
	"adr": {
		"street": "Hemvärnsgatan 11"
	},
	"hours": [
		"Mån - Fre: 08:00--17:00",
		"Lör: stängt",
		"Sön: stängt"
	],
	"booking": {
		"phone": "077-144 14 41",
		"url": "http://bokning.dekra-bilbesiktning.se/bb-web/webBooking"
	},
	"coords": {
	 	"lat": 59.353904, 
	 	"lng": 17.976492
 	}
 },
 {
	"id": 1002,
	"name": "DEKRA",
	"adr": {
		"street": "Tegelvägen 22"
	},
	"hours": [
		"Mån - Fre: 08:00--17:00",
		"Lör: stängt",
		"Sön: stängt"
	],
	"booking": {
		"phone": "077-144 14 41",
		"url": "http://bokning.dekra-bilbesiktning.se/bb-web/webBooking"
	},
	"coords": {
		"lat": 62.397105, 
		"lng": 17.256451
	}
 },




 {
	"id": "statid0127",
	"name": "Opus Bilprovning AB",
	"adr": {
		"street": "Teknikervägen 2"
	},
	"booking": {
		"phone": "0775-50 03 38", 
		"url": "http://bilprovning.se/Boka" 
	},
	"hours": [],
	"coords": {
		"lat": 58.931208,
		"lng": 17.936967
	} 
},
{
	"id": "statid0128",
	"name": "Opus Bilprovning AB",
	"adr": {
		"street": "Hammarvägen 26"
	},
	"booking": {
		"phone": "0775-50 03 39", 
		"url": "http://bilprovning.se/Boka" 
	},
	"hours": [],
	"coords": {
		"lat": 65.333270,
		"lng": 21.420649
	} 
},
{
	"id": "statid0129",
	"name": "Opus Bilprovning AB",
	"adr": {
		"street": "Stora Industriområdet"
	},
	"booking": {
		"phone": "0775-50 03 40", 
		"url": "http://bilprovning.se/Boka" 
	},
	"hours": [],
	"coords": {
		"lat": 60.894972,
		"lng": 15.148022
	} 
},
{
	"id": "statid0130",
	"name": "Opus Bilprovning AB",
	"adr": {
		"street": "Fridhemsgatan 12"
	},
	"booking": {
		"phone": "0775-50 03 41", 
		"url": "http://bilprovning.se/Boka" 
	},
	"hours": [],
	"coords": {
		"lat": 59.917617,
		"lng": 16.630412
	} 
},
{
	"id": "statid0131",
	"name": "Opus Bilprovning AB",
	"adr": {
		"street": "Industrivägen 14"
	},
	"booking": {
		"phone": "0775-50 03 42", 
		"url": "http://bilprovning.se/Boka" 
	},
	"hours": [],
	"coords": {
		"lat": 60.625489,
		"lng": 16.757870
	} 
},
{
	"id": "statid0132",
	"name": "Opus Bilprovning AB",
	"adr": {
		"street": "Plåtvägen 2"
	},
	"booking": {
		"phone": "0775-50 03 43", 
		"url": "http://bilprovning.se/Boka" 
	},
	"hours": [],
	"coords": {
		"lat": 64.733445,
		"lng": 20.959483
	} 
},
{
	"id": "statid0133",
	"name": "Opus Bilprovning AB",
	"adr": {
		"street": "Bangårdsgatan 5"
	},
	"booking": {
		"phone": "0775-50 03 44", 
		"url": "http://bilprovning.se/Boka" 
	},
	"hours": [],
	"coords": {
		"lat": 58.394600,
		"lng": 13.865281
	} 
},
{
	"id": "statid0134",
	"name": "Opus Bilprovning AB",
	"adr": {
		"street": "Gamla vägen 5"
	},
	"booking": {
		"phone": "0775-50 03 45", 
		"url": "http://bilprovning.se/Boka" 
	},
	"hours": [],
	"coords": {
		"lat": 63.163158,
		"lng": 17.306622
	} 
},
{
	"id": "statid0135",
	"name": "Opus Bilprovning AB",
	"adr": {
		"street": "Strömsätravägen 14"
	},
	"booking": {
		"phone": "0775-50 03 46", 
		"url": "http://bilprovning.se/Boka" 
	},
	"hours": [],
	"coords": {
		"lat": 59.287142,
		"lng": 17.930237
	} 
},
{
	"id": "statid0136",
	"name": "Opus Bilprovning AB",
	"adr": {
		"street": "Selaövägen 13"
	},
	"booking": {
		"phone": "0775-50 03 47", 
		"url": "http://bilprovning.se/Boka" 
	},
	"hours": [],
	"coords": {
		"lat": 59.261144,
		"lng": 18.063558
	} 
},
{
	"id": "statid0137",
	"name": "Opus Bilprovning AB",
	"adr": {
		"street": "Skattegårdsvägen 122"
	},
	"booking": {
		"phone": "0775-50 03 48", 
		"url": "http://bilprovning.se/Boka" 
	},
	"hours": [],
	"coords": {
		"lat": 59.374559,
		"lng": 17.858299
	} 
},
{
	"id": "statid0138",
	"name": "Opus Bilprovning AB",
	"adr": {
		"street": "Lärlingsvägen 1"
	},
	"booking": {
		"phone": "0775-50 03 49", 
		"url": "http://bilprovning.se/Boka" 
	},
	"hours": [],
	"coords": {
		"lat": 62.441454,
		"lng": 17.329231
	} 
},
{
	"id": "statid0139",
	"name": "Opus Bilprovning AB",
	"adr": {
		"street": "Norrgårdsgatan 3"
	},
	"booking": {
		"phone": "0775-50 03 50", 
		"url": "http://bilprovning.se/Boka" 
	},
	"hours": [],
	"coords": {
		"lat": 59.839286,
		"lng": 13.126205
	} 
},
{
	"id": "statid0140",
	"name": "Opus Bilprovning AB",
	"adr": {
		"street": "Norrlandsvägen 35"
	},
	"booking": {
		"phone": "0775-50 03 51", 
		"url": "http://bilprovning.se/Boka" 
	},
	"hours": [],
	"coords": {
		"lat": 59.141338,
		"lng": 12.935095
	} 
},
{
	"id": "statid0141",
	"name": "Opus Bilprovning AB",
	"adr": {
		"street": "Flygvägen 6"
	},
	"booking": {
		"phone": "0775-50 03 52", 
		"url": "http://bilprovning.se/Boka" 
	},
	"hours": [],
	"coords": {
		"lat": 61.293192,
		"lng": 17.067046
	} 
},
{
	"id": "statid0142",
	"name": "Opus Bilprovning AB",
	"adr": {
		"street": "Forskargatan 17"
	},
	"booking": {
		"phone": "0775-50 03 53", 
		"url": "http://bilprovning.se/Boka" 
	},
	"hours": [],
	"coords": {
		"lat": 59.203629,
		"lng": 17.611214
	} 
},
{
	"id": "statid0143",
	"name": "Opus Bilprovning AB",
	"adr": {
		"street": "Vallskogavägen 9"
	},
	"booking": {
		"phone": "0775-50 03 54", 
		"url": "http://bilprovning.se/Boka" 
	},
	"hours": [],
	"coords": {
		"lat": 60.346027,
		"lng": 17.527507
	} 
},
{
	"id": "statid0144",
	"name": "Opus Bilprovning AB",
	"adr": {
		"street": "Per Uddénsväg 15"
	},
	"booking": {
		"phone": "0775-50 03 55", 
		"url": "http://bilprovning.se/Boka" 
	},
	"hours": [],
	"coords": {
		"lat": 62.498779,
		"lng": 17.323717
	} 
},
{
	"id": "statid0145",
	"name": "Opus Bilprovning AB",
	"adr": {
		"street": "Strömgatan 10"
	},
	"booking": {
		"phone": "0775-50 03 56", 
		"url": "http://bilprovning.se/Boka" 
	},
	"hours": [],
	"coords": {
		"lat": 56.520459,
		"lng": 14.988259
	} 
},
{
	"id": "statid0146",
	"name": "Opus Bilprovning AB",
	"adr": {
		"street": "Stockholmsvägen 102 "
	},
	"booking": {
		"phone": "0775-50 03 57", 
		"url": "http://bilprovning.se/Boka" 
	},
	"hours": [],
	"coords": {
		"lat": 59.438306,
		"lng": 18.058187
	} 
},
{
	"id": "statid0147",
	"name": "Opus Bilprovning AB",
	"adr": {
		"street": "Kemistvägen 2"
	},
	"booking": {
		"phone": "0775-50 03 58", 
		"url": "http://bilprovning.se/Boka" 
	},
	"hours": [],
	"coords": {
		"lat": 59.448168,
		"lng": 18.087385
	} 
},
{
	"id": "statid0148",
	"name": "Opus Bilprovning AB",
	"adr": {
		"street": "Vistvägen 4"
	},
	"booking": {
		"phone": "0775-50 03 59", 
		"url": "http://bilprovning.se/Boka" 
	},
	"hours": [],
	"coords": {
		"lat": 57.805703,
		"lng": 13.408655
	} 
},
{
	"id": "statid0149",
	"name": "Opus Bilprovning AB",
	"adr": {
		"street": "Obbolavägen 128"
	},
	"booking": {
		"phone": "0775-50 03 60", 
		"url": "http://bilprovning.se/Boka" 
	},
	"hours": [],
	"coords": {
		"lat": 63.800296,
		"lng": 20.280875
	} 
},
{
	"id": "statid0150",
	"name": "Opus Bilprovning AB",
	"adr": {
		"street": "Mätarvägen 8"
	},
	"booking": {
		"phone": "0775-50 03 61", 
		"url": "http://bilprovning.se/Boka" 
	},
	"hours": [],
	"coords": {
		"lat": 63.854509,
		"lng": 20.208911
	} 
},
{
	"id": "statid0151",
	"name": "Opus Bilprovning AB",
	"adr": {
		"street": "Kanalvägen 12"
	},
	"booking": {
		"phone": "0775-50 03 62", 
		"url": "http://bilprovning.se/Boka" 
	},
	"hours": [],
	"coords": {
		"lat": 59.500145,
		"lng": 17.927098
	} 
},
{
	"id": "statid0152",
	"name": "Opus Bilprovning AB",
	"adr": {
		"street": "Truckvägen 22 "
	},
	"booking": {
		"phone": "0775-50 03 63", 
		"url": "http://bilprovning.se/Boka" 
	},
	"hours": [],
	"coords": {
		"lat": 59.515283,
		"lng": 17.926320
	} 
},
{
	"id": "statid0153",
	"name": "Opus Bilprovning AB",
	"adr": {
		"street": "Hållnäsgatan 2"
	},
	"booking": {
		"phone": "0775-50 03 64", 
		"url": "http://bilprovning.se/Boka" 
	},
	"hours": [],
	"coords": {
		"lat": 59.877949,
		"lng": 17.590196
	} 
},
{
	"id": "statid0154",
	"name": "Opus Bilprovning AB",
	"adr": {
		"street": "Vammargatan 2A"
	},
	"booking": {
		"phone": "0775-50 03 65", 
		"url": "http://bilprovning.se/Boka" 
	},
	"hours": [],
	"coords": {
		"lat": 58.209229,
		"lng": 16.582879
	} 
},
{
	"id": "statid0155",
	"name": "Opus Bilprovning AB",
	"adr": {
		"street": "Okvistavägen 30"
	},
	"booking": {
		"phone": "0775-50 03 66", 
		"url": "http://bilprovning.se/Boka" 
	},
	"hours": [],
	"coords": {
		"lat": 59.529721,
		"lng": 18.117206
	} 
},
{
	"id": "statid0156",
	"name": "Opus Bilprovning AB",
	"adr": {
		"street": "Brogatan 13"
	},
	"booking": {
		"phone": "0775-50 03 67", 
		"url": "http://bilprovning.se/Boka" 
	},
	"hours": [],
	"coords": {
		"lat": 64.281761,
		"lng": 21.057225
	} 
},
{
	"id": "statid0157",
	"name": "Opus Bilprovning AB",
	"adr": {
		"street": "≈byvägen 7"
	},
	"booking": {
		"phone": "0775-50 03 68", 
		"url": "http://bilprovning.se/Boka" 
	},
	"hours": [],
	"coords": {
		"lat": 59.263893,
		"lng": 15.162776
	} 
},
{
	"id": "statid0158",
	"name": "Opus Bilprovning AB",
	"adr": {
		"street": "Chaufförvägen 26"
	},
	"booking": {
		"phone": "0775-50 03 69", 
		"url": "http://bilprovning.se/Boka" 
	},
	"hours": [],
	"coords": {
		"lat": 63.171151,
		"lng": 14.694689
	} 
},
{
	"id": "statid0159",
	"name": "Besikta Bilprovning i Sverige AB",
	"adr": {
	 	"street": "Burskapsvägen 6"
	},
	"booking": {
		"phone": "0774-400 800", 
		"url": "https://besikta.se/bokning/" 
	},
	"hours": [],
	"coords": {
		"lat": 59.426103,
		"lng": 15.833026
	}
},
{
	"id": "statid0160",
	"name": "Besikta Bilprovning i Sverige AB",
	"adr": {
	 	"street": "Industrigatan 9"
	},
	"booking": {
		"phone": "0774-400 800", 
		"url": "https://besikta.se/bokning/" 
	},
	"hours": [],
	"coords": {
		"lat": 59.040444,
		"lng": 12.230946
	}
},
{
	"id": "statid0161",
	"name": "Besikta Bilprovning i Sverige AB",
	"adr": {
	 	"street": "Rungatan 14"
	},
	"booking": {
		"phone": "0774-400 800", 
		"url": "https://besikta.se/bokning/" 
	},
	"hours": [],
	"coords": {
		"lat": 56.873493,
		"lng": 16.673118
	}
},
{
	"id": "statid0162",
	"name": "Besikta Bilprovning i Sverige AB",
	"adr": {
	 	"street": "Verkstadsgatan 18"
	},
	"booking": {
		"phone": "0774-400 800", 
		"url": "https://besikta.se/bokning/" 
	},
	"hours": [],
	"coords": {
		"lat": 57.718637,
		"lng": 12.891203
	}
},
{
	"id": "statid0163",
	"name": "Besikta Bilprovning i Sverige AB",
	"adr": {
	 	"street": "Stenhusvägen 11D"
	},
	"booking": {
		"phone": "0774-400 800", 
		"url": "https://besikta.se/bokning/" 
	},
	"hours": [],
	"coords": {
		"lat": 56.425534,
		"lng": 12.889677
	}
},
{
	"id": "statid0164",
	"name": "Besikta Bilprovning i Sverige AB",
	"adr": {
	 	"street": "Kvarnarpsvägen 6"
	},
	"booking": {
		"phone": "0774-400 800", 
		"url": "https://besikta.se/bokning/" 
	},
	"hours": [],
	"coords": {
		"lat": 57.658738,
		"lng": 14.988876
	}
},
{
	"id": "statid0165",
	"name": "Besikta Bilprovning i Sverige AB",
	"adr": {
	 	"street": "MÂtt Johanssons väg 14"
	},
	"booking": {
		"phone": "0774-400 800", 
		"url": "https://besikta.se/bokning/" 
	},
	"hours": [],
	"coords": {
		"lat": 59.383803,
		"lng": 16.495030
	}
},
{
	"id": "statid0166",
	"name": "Besikta Bilprovning i Sverige AB",
	"adr": {
	 	"street": "Nordmannagatan 6"
	},
	"booking": {
		"phone": "0774-400 800", 
		"url": "https://besikta.se/bokning/" 
	},
	"hours": [],
	"coords": {
		"lat": 58.181617,
		"lng": 13.570387
	}
},
{
	"id": "statid0167",
	"name": "Besikta Bilprovning i Sverige AB",
	"adr": {
	 	"street": "Levertorpsvägen 1"
	},
	"booking": {
		"phone": "0774-400 800", 
		"url": "https://besikta.se/bokning/" 
	},
	"hours": [],
	"coords": {
		"lat": 58.701594,
		"lng": 15.809011
	}
},
{
	"id": "statid0168",
	"name": "Besikta Bilprovning i Sverige AB",
	"adr": {
	 	"street": "Terassvägen 2"
	},
	"booking": {
		"phone": "0774-400 800", 
		"url": "https://besikta.se/bokning/" 
	},
	"hours": [],
	"coords": {
		"lat": 57.290216,
		"lng": 13.517517
	}
},
{
	"id": "statid0169",
	"name": "Besikta Bilprovning i Sverige AB",
	"adr": {
	 	"street": "Klangfärgsgatan 12"
	},
	"booking": {
		"phone": "0774-400 800", 
		"url": "https://besikta.se/bokning/" 
	},
	"hours": [],
	"coords": {
		"lat": 57.663005,
		"lng": 11.894986
	}
},
{
	"id": "statid0170",
	"name": "Besikta Bilprovning i Sverige AB",
	"adr": {
	 	"street": "Datavägen 33-35"
	},
	"booking": {
		"phone": "0774-400 800", 
		"url": "https://besikta.se/bokning/" 
	},
	"hours": [],
	"coords": {
		"lat": 57.638841,
		"lng": 11.961070
	}
},
{
	"id": "statid0171",
	"name": "Besikta Bilprovning i Sverige AB",
	"adr": {
	 	"street": "KarlsbogÂrdsgatan 2"
	},
	"booking": {
		"phone": "0774-400 800", 
		"url": "https://besikta.se/bokning/" 
	},
	"hours": [],
	"coords": {
		"lat": 57.771409,
		"lng": 11.992473
	}
},
{
	"id": "statid0172",
	"name": "Besikta Bilprovning i Sverige AB",
	"adr": {
	 	"street": "Kristinehedsvägen 24"
	},
	"booking": {
		"phone": "0774-400 800", 
		"url": "https://besikta.se/bokning/" 
	},
	"hours": [],
	"coords": {
		"lat": 56.683509,
		"lng": 12.890797
	}
},
{
	"id": "statid0173",
	"name": "Besikta Bilprovning i Sverige AB",
	"adr": {
	 	"street": "Södra Kringelvägen 8"
	},
	"booking": {
		"phone": "0774-400 800", 
		"url": "https://besikta.se/bokning/" 
	},
	"hours": [],
	"coords": {
		"lat": 56.148702,
		"lng": 13.777564
	}
},
{
	"id": "statid0174",
	"name": "Besikta Bilprovning i Sverige AB",
	"adr": {
	 	"street": "Verkstadsgatan 5"
	},
	"booking": {
		"phone": "0774-400 800", 
		"url": "https://besikta.se/bokning/" 
	},
	"hours": [],
	"coords": {
		"lat": 55.855988,
		"lng": 13.671121
	}
},
{
	"id": "statid0175",
	"name": "Besikta Bilprovning i Sverige AB",
	"adr": {
	 	"street": "Hangarvägen 11"
	},
	"booking": {
		"phone": "0774-400 800", 
		"url": "https://besikta.se/bokning/" 
	},
	"hours": [],
	"coords": {
		"lat": 59.341042,
		"lng": 14.499399
	}
},
{
	"id": "statid0176",
	"name": "Besikta Bilprovning i Sverige AB",
	"adr": {
	 	"street": "Blockgatan 19"
	},
	"booking": {
		"phone": "0774-400 800", 
		"url": "https://besikta.se/bokning/" 
	},
	"hours": [],
	"coords": {
		"lat": 59.388185,
		"lng": 13.473531
	}
},
{
	"id": "statid0177",
	"name": "Besikta Bilprovning i Sverige AB",
	"adr": {
	 	"street": "Fordonsgatan 6"
	},
	"booking": {
		"phone": "0774-400 800", 
		"url": "https://besikta.se/bokning/" 
	},
	"hours": [],
	"coords": {
		"lat": 57.497215,
		"lng": 12.681726
	}
},
{
	"id": "statid0178",
	"name": "Besikta Bilprovning i Sverige AB",
	"adr": {
	 	"street": "Ravingatan 5"
	},
	"booking": {
		"phone": "0774-400 800", 
		"url": "https://besikta.se/bokning/" 
	},
	"hours": [],
	"coords": {
		"lat": 56.130926,
		"lng": 13.114971
	}
},
{
	"id": "statid0179",
	"name": "Besikta Bilprovning i Sverige AB",
	"adr": {
	 	"street": "Blekingevägen 102"
	},
	"booking": {
		"phone": "0774-400 800", 
		"url": "https://besikta.se/bokning/" 
	},
	"hours": [],
	"coords": {
		"lat": 56.027259,
		"lng": 14.212274
	}
},
{
	"id": "statid0180",
	"name": "Besikta Bilprovning i Sverige AB",
	"adr": {
	 	"street": "Hantverksgatan 32"
	},
	"booking": {
		"phone": "0774-400 800", 
		"url": "https://besikta.se/bokning/" 
	},
	"hours": [],
	"coords": {
		"lat": 57.479061,
		"lng": 12.082760
	}
},
{
	"id": "statid0181",
	"name": "Besikta Bilprovning i Sverige AB",
	"adr": {
	 	"street": "Ramgatan 2"
	},
	"booking": {
		"phone": "0774-400 800", 
		"url": "https://besikta.se/bokning/" 
	},
	"hours": [],
	"coords": {
		"lat": 55.870919,
		"lng": 12.871750
	}
},
{
	"id": "statid0182",
	"name": "Besikta Bilprovning i Sverige AB",
	"adr": {
	 	"street": "Truvegatan 6"
	},
	"booking": {
		"phone": "0774-400 800", 
		"url": "https://besikta.se/bokning/" 
	},
	"hours": [],
	"coords": {
		"lat": 58.496331,
		"lng": 13.189292
	}
},
{
	"id": "statid0183",
	"name": "Besikta Bilprovning i Sverige AB",
	"adr": {
	 	"street": "Bonnorpsgatan 2"
	},
	"booking": {
		"phone": "0774-400 800", 
		"url": "https://besikta.se/bokning/" 
	},
	"hours": [],
	"coords": {
		"lat": 58.430311,
		"lng": 15.600566
	}
},
{
	"id": "statid0184",
	"name": "Besikta Bilprovning i Sverige AB",
	"adr": {
	 	"street": "Fyrfatsvägen 1"
	},
	"booking": {
		"phone": "0774-400 800", 
		"url": "https://besikta.se/bokning/" 
	},
	"hours": [],
	"coords": {
		"lat": 55.690223,
		"lng": 13.095314
	}
},
{
	"id": "statid0185",
	"name": "Besikta Bilprovning i Sverige AB",
	"adr": {
	 	"street": "Porfyrvägen10"
	},
	"booking": {
		"phone": "0774-400 800", 
		"url": "https://besikta.se/bokning/" 
	},
	"hours": [],
	"coords": {
		"lat": 55.693267,
		"lng": 13.220390
	}
},
{
	"id": "statid0186",
	"name": "Besikta Bilprovning i Sverige AB",
	"adr": {
	 	"street": "Höstbruksvägen 2"
	},
	"booking": {
		"phone": "0774-400 800", 
		"url": "https://besikta.se/bokning/" 
	},
	"hours": [],
	"coords": {
		"lat": 55.719258,
		"lng": 13.162514
	}
},
{
	"id": "statid0187",
	"name": "Besikta Bilprovning i Sverige AB",
	"adr": {
	 	"street": "Volframgatan 5"
	},
	"booking": {
		"phone": "0774-400 800", 
		"url": "https://besikta.se/bokning/" 
	},
	"hours": [],
	"coords": {
		"lat": 55.589964,
		"lng": 13.036157
	}
},
{
	"id": "statid0188",
	"name": "Besikta Bilprovning i Sverige AB",
	"adr": {
	 	"street": "Källvattengatan 7"
	},
	"booking": {
		"phone": "0774-400 800", 
		"url": "https://besikta.se/bokning/" 
	},
	"hours": [],
	"coords": {
		"lat": 55.605750,
		"lng": 13.073081
	}
},
{
	"id": "statid0189",
	"name": "Besikta Bilprovning i Sverige AB",
	"adr": {
	 	"street": "Linköpingsvägen 6"
	},
	"booking": {
		"phone": "0774-400 800", 
		"url": "https://besikta.se/bokning/" 
	},
	"hours": [],
	"coords": {
		"lat": 58.336504,
		"lng": 15.157585
	}
},
{
	"id": "statid0190",
	"name": "Besikta Bilprovning i Sverige AB",
	"adr": {
	 	"street": "Turbinvägen 1"
	},
	"booking": {
		"phone": "0774-400 800", 
		"url": "https://besikta.se/bokning/" 
	},
	"hours": [],
	"coords": {
		"lat": 58.556531,
		"lng": 15.059403
	}
},
{
	"id": "statid0191",
	"name": "Besikta Bilprovning i Sverige AB",
	"adr": {
	 	"street": "Argongatan 2"
	},
	"booking": {
		"phone": "0774-400 800", 
		"url": "https://besikta.se/bokning/" 
	},
	"hours": [],
	"coords": {
		"lat": 57.639505,
		"lng": 12.001039
	}
},
{
	"id": "statid0192",
	"name": "Besikta Bilprovning i Sverige AB",
	"adr": {
	 	"street": "Arkösundsvägen 3"
	},
	"booking": {
		"phone": "0774-400 800", 
		"url": "https://besikta.se/bokning/" 
	},
	"hours": [],
	"coords": {
		"lat": 58.582618,
		"lng": 16.223151
	}
},
{
	"id": "statid0193",
	"name": "Besikta Bilprovning i Sverige AB",
	"adr": {
	 	"street": "Madesjövägen 4"
	},
	"booking": {
		"phone": "0774-400 800", 
		"url": "https://besikta.se/bokning/" 
	},
	"hours": [],
	"coords": {
		"lat": 56.741182,
		"lng": 15.890796
	}
},
{
	"id": "statid0194",
	"name": "Besikta Bilprovning i Sverige AB",
	"adr": {
	 	"street": "÷stra Ringvägen 294-3"
	},
	"booking": {
		"phone": "0774-400 800", 
		"url": "https://besikta.se/bokning/" 
	},
	"hours": [],
	"coords": {
		"lat": 56.259831,
		"lng": 14.553311
	}
},
{
	"id": "statid0195",
	"name": "Besikta Bilprovning i Sverige AB",
	"adr": {
	 	"street": "JärntrÂdsvägen 1-3"
	},
	"booking": {
		"phone": "0774-400 800", 
		"url": "https://besikta.se/bokning/" 
	},
	"hours": [],
	"coords": {
		"lat": 57.739921,
		"lng": 12.085535
	}
},
{
	"id": "statid0196",
	"name": "Besikta Bilprovning i Sverige AB",
	"adr": {
	 	"street": "Omloppsvägen 2"
	},
	"booking": {
		"phone": "0774-400 800", 
		"url": "https://besikta.se/bokning/" 
	},
	"hours": [],
	"coords": {
		"lat": 56.232691,
		"lng": 15.262645
	}
},
{
	"id": "statid0197",
	"name": "Besikta Bilprovning i Sverige AB",
	"adr": {
	 	"street": "Mejselvägen 1"
	},
	"booking": {
		"phone": "0774-400 800", 
		"url": "https://besikta.se/bokning/" 
	},
	"hours": [],
	"coords": {
		"lat": 58.064909,
		"lng": 11.867174
	}
},
{
	"id": "statid0198",
	"name": "Besikta Bilprovning i Sverige AB",
	"adr": {
	 	"street": "Bosarve 245"
	},
	"booking": {
		"phone": "0774-400 800", 
		"url": "https://besikta.se/bokning/" 
	},
	"hours": [],
	"coords": {
		"lat": 57.280862,
		"lng": 18.474416
	}
},
{
	"id": "statid0199",
	"name": "Besikta Bilprovning i Sverige AB",
	"adr": {
	 	"street": "Industrigatan 10"
	},
	"booking": {
		"phone": "0774-400 800", 
		"url": "https://besikta.se/bokning/" 
	},
	"hours": [],
	"coords": {
		"lat": 55.512632,
		"lng": 13.253820
	}
},
{
	"id": "statid0200",
	"name": "Besikta Bilprovning i Sverige AB",
	"adr": {
	 	"street": "Hantverkaregatan 3B"
	},
	"booking": {
		"phone": "0774-400 800", 
		"url": "https://besikta.se/bokning/" 
	},
	"hours": [],
	"coords": {
		"lat": 57.397112,
		"lng": 14.657024
	}
},
{
	"id": "statid0201",
	"name": "Besikta Bilprovning i Sverige AB",
	"adr": {
	 	"street": "Industrivägen 2"
	},
	"booking": {
		"phone": "0774-400 800", 
		"url": "https://besikta.se/bokning/" 
	},
	"hours": [],
	"coords": {
		"lat": 56.061765,
		"lng": 14.615126
	}
},
{
	"id": "statid0202",
	"name": "Besikta Bilprovning i Sverige AB",
	"adr": {
	 	"street": "Metallgatan 1"
	},
	"booking": {
		"phone": "0774-400 800", 
		"url": "https://besikta.se/bokning/" 
	},
	"hours": [],
	"coords": {
		"lat": 58.011253,
		"lng": 14.954546
	}
},
{
	"id": "statid0203",
	"name": "Besikta Bilprovning i Sverige AB",
	"adr": {
	 	"street": "Fraktvägen 15"
	},
	"booking": {
		"phone": "0774-400 800", 
		"url": "https://besikta.se/bokning/" 
	},
	"hours": [],
	"coords": {
		"lat": 55.384333,
		"lng": 13.115609
	}
},
{
	"id": "statid0204",
	"name": "Besikta Bilprovning i Sverige AB",
	"adr": {
	 	"street": "Bilprovarevägen 9"
	},
	"booking": {
		"phone": "0774-400 800", 
		"url": "https://besikta.se/bokning/" 
	},
	"hours": [],
	"coords": {
		"lat": 58.277997,
		"lng": 12.319764
	}
},
{
	"id": "statid0205",
	"name": "Besikta Bilprovning i Sverige AB",
	"adr": {
	 	"street": "Gräskärrsvägen 17"
	},
	"booking": {
		"phone": "0774-400 800", 
		"url": "https://besikta.se/bokning/" 
	},
	"hours": [],
	"coords": {
		"lat": 58.355251,
		"lng": 11.986235
	}
},
{
	"id": "statid0206",
	"name": "Besikta Bilprovning i Sverige AB",
	"adr": {
	 	"street": "Heljevedsvägen 2"
	},
	"booking": {
		"phone": "0774-400 800", 
		"url": "https://besikta.se/bokning/" 
	},
	"hours": [],
	"coords": {
		"lat": 58.254670,
		"lng": 12.970000
	}
},
{
	"id": "statid0207",
	"name": "Besikta Bilprovning i Sverige AB",
	"adr": {
	 	"street": "Folkparksvägen 52"
	},
	"booking": {
		"phone": "0774-400 800", 
		"url": "https://besikta.se/bokning/" 
	},
	"hours": [],
	"coords": {
		"lat": 57.761838,
		"lng": 16.605039
	}
},
{
	"id": "statid0208",
	"name": "Besikta Bilprovning i Sverige AB",
	"adr": {
	 	"street": "≈nghammargatan"
	},
	"booking": {
		"phone": "0774-400 800", 
		"url": "https://besikta.se/bokning/" 
	},
	"hours": [],
	"coords": {
		"lat": 59.600534,
		"lng": 16.488198
	}
},
{
	"id": "statid0209",
	"name": "Besikta Bilprovning i Sverige AB",
	"adr": {
	 	"street": "Dragongatan 43"
	},
	"booking": {
		"phone": "0774-400 800", 
		"url": "https://besikta.se/bokning/" 
	},
	"hours": [],
	"coords": {
		"lat": 55.434580,
		"lng": 13.838175
	}
},
{
	"id": "statid0210",
	"name": "Besikta Bilprovning i Sverige AB",
	"adr": {
	 	"street": "Furuhällsvägen 4"
	},
	"booking": {
		"phone": "0774-400 800", 
		"url": "https://besikta.se/bokning/" 
	},
	"hours": [],
	"coords": {
		"lat": 59.041857,
		"lng": 12.714228
	}
},
{
	"id": "statid0211",
	"name": "Besikta Bilprovning i Sverige AB",
	"adr": {
	 	"street": "Terminalgatan 4 "
	},
	"booking": {
		"phone": "0774-400 800", 
		"url": "https://besikta.se/bokning/" 
	},
	"hours": [],
	"coords": {
		"lat": 57.166012,
		"lng": 15.361117
	}
},
{
	"id": "statid0212",
	"name": "Besikta Bilprovning i Sverige AB",
	"adr": {
	 	"street": "Bäckgatan 14"
	},
	"booking": {
		"phone": "0774-400 800", 
		"url": "https://besikta.se/bokning/" 
	},
	"hours": [],
	"coords": {
		"lat": 58.213040,
		"lng": 15.986532
	}
},
{
	"id": "statid0213",
	"name": "Besikta Bilprovning i Sverige AB",
	"adr": {
	 	"street": "Industrigatan 2"
	},
	"booking": {
		"phone": "0774-400 800", 
		"url": "https://besikta.se/bokning/" 
	},
	"hours": [],
	"coords": {
		"lat": 56.538440,
		"lng": 14.133740
	}
},
{
	"id": "statid0214",
	"name": "Besikta Bilprovning i Sverige AB",
	"adr": {
	 	"street": "Älvdalsgatan 5"
	},
	"booking": {
		"phone": "0774-400 800", 
		"url": "https://besikta.se/bokning/" 
	},
	"hours": [],
	"coords": {
		"lat": 56.254703,
		"lng": 12.907839
	}
}]